MedInc,HouseAge,AveRooms,AveBedrms,Population,AveOccup,Latitude,Longitude,lower_bound,upper_bound,y_test,y_test_pred,name,complexity
2.9965,20.0,5.839160839160839,1.0909090909090908,1174.0,2.7365967365967365,39.49,-121.49,-0.010693677610109198,1.9901194406166645,0.889,0.9897128815032776,Artemisstreet,easy
2.96,19.0,5.0701754385964914,1.067251461988304,866.0,2.5321637426900585,40.95,-124.11,0.025501958486089382,2.026315076712863,0.817,1.0259085175994762,Aphroditestreet,easy
6.2838,34.0,6.948717948717949,1.0,442.0,2.2666666666666666,37.8,-122.18,2.582805792571863,4.583618910798636,3.182,3.5832123516852494,Apollostreet,easy
1.7679,39.0,5.0,0.8888888888888888,22.0,2.4444444444444446,37.63,-120.92,-0.024694142906486305,1.9761189753202872,4.5,0.9757124162069005,Hephaestusstreet,hard
1.775,40.0,2.6875,1.0653409090909092,700.0,1.9886363636363635,37.82,-122.27,1.1274769493248968,3.1282900675516707,1.125,2.1278835084382837,Athenastreet,medium
2.6458,16.0,2.989795918367347,1.0591836734693878,1648.0,1.6816326530612244,34.1,-118.35,1.7293678536065549,3.7301809718333283,3.722,2.7297744127199417,Poseidonstreet,medium
6.887,37.0,5.915094339622642,0.8962264150943396,259.0,2.443396226415094,33.77,-118.32,2.9888493784997916,4.989662496726566,5.00001,3.9892559376131786,Aresstreet,medium
2.3667,39.0,3.572463768115942,1.2173913043478262,259.0,1.8768115942028984,34.15,-118.33,2.186309758539519,4.187122876766292,0.175,3.1867163176529054,Hestiastreet,hard
3.0625,34.0,3.2142857142857144,0.7857142857142857,39.0,2.7857142857142856,34.08,-117.08,0.29213080613131903,2.2929439243580925,5.00001,1.2925373652447059,Zeusstreet,hard
